[
    {
        "stop_id": "WELL1",
        "stop_code": "WELL1",
        "stop_name": "Wellington Station",
        "stop_desc": "",
        "stop_lat": -41.27832,
        "stop_lon": 174.78063,
        "zone_id": "1",
        "stop_url": "",
        "location_type": 0,
        "parent_station": "WELL",
        "stop_timezone": ""
    },
    {
        "stop_id": "CROF",
        "stop_code": "CROF",
        "stop_name": "Crofton Downs Station",
        "stop_desc": "",
        "stop_lat": -41.25504083,
        "stop_lon": 174.76649879,
        "zone_id": "3",
        "stop_url": "",
        "location_type": 0,
        "parent_station": "",
        "stop_timezone": "Pacific/Auckland"
    },
    {
        "stop_id": "NGAI2",
        "stop_code": "NGAI2",
        "stop_name": "Ngaio Station",
        "stop_desc": "",
        "stop_lat": -41.25095079,
        "stop_lon": 174.77181247,
        "zone_id": "3",
        "stop_url": "",
        "location_type": 0,
        "parent_station": "NGAI",
        "stop_timezone": ""
    },
    {
        "stop_id": "AWAR",
        "stop_code": "AWAR",
        "stop_name": "Awarua Street Station",
        "stop_desc": "",
        "stop_lat": -41.24650334,
        "stop_lon": 174.7742774,
        "zone_id": "3",
        "stop_url": "",
        "location_type": 0,
        "parent_station": "",
        "stop_timezone": "Pacific/Auckland"
    },
    {
        "stop_id": "SIML",
        "stop_code": "SIML",
        "stop_name": "Simla Crescent Station",
        "stop_desc": "",
        "stop_lat": -41.24679734,
        "stop_lon": 174.78433654,
        "zone_id": "3",
        "stop_url": "",
        "location_type": 0,
        "parent_station": "",
        "stop_timezone": "Pacific/Auckland"
    },
    {
        "stop_id": "BOXH",
        "stop_code": "BOXH",
        "stop_name": "Box Hill Station",
        "stop_desc": "",
        "stop_lat": -41.24601334,
        "stop_lon": 174.78875658,
        "zone_id": "3",
        "stop_url": "",
        "location_type": 0,
        "parent_station": "",
        "stop_timezone": "Pacific/Auckland"
    },
    {
        "stop_id": "KHAN2",
        "stop_code": "KHAN2",
        "stop_name": "Khandallah Station",
        "stop_desc": "",
        "stop_lat": -41.24265542,
        "stop_lon": 174.7933911,
        "zone_id": "3",
        "stop_url": "",
        "location_type": 0,
        "parent_station": "KHAN",
        "stop_timezone": ""
    },
    {
        "stop_id": "RARO",
        "stop_code": "RARO",
        "stop_name": "Raroa Station",
        "stop_desc": "",
        "stop_lat": -41.23225739,
        "stop_lon": 174.80174787,
        "zone_id": "3",
        "stop_url": "",
        "location_type": 0,
        "parent_station": "",
        "stop_timezone": "Pacific/Auckland"
    },
    {
        "stop_id": "JOHN",
        "stop_code": "JOHN",
        "stop_name": "Johnsonville Station",
        "stop_desc": "",
        "stop_lat": -41.22334496,
        "stop_lon": 174.80474332,
        "zone_id": "3",
        "stop_url": "",
        "location_type": 0,
        "parent_station": "",
        "stop_timezone": "Pacific/Auckland"
    },
    {
        "stop_id": "KHAN1",
        "stop_code": "KHAN1",
        "stop_name": "Khandallah Station",
        "stop_desc": "",
        "stop_lat": -41.24268712,
        "stop_lon": 174.7934831,
        "zone_id": "3",
        "stop_url": "",
        "location_type": 0,
        "parent_station": "KHAN",
        "stop_timezone": ""
    },
    {
        "stop_id": "NGAI1",
        "stop_code": "NGAI1",
        "stop_name": "Ngaio Station",
        "stop_desc": "",
        "stop_lat": -41.25099114,
        "stop_lon": 174.77190448,
        "zone_id": "3",
        "stop_url": "",
        "location_type": 0,
        "parent_station": "NGAI",
        "stop_timezone": ""
    }
]