[
    {
        "stop_id": "PETO2",
        "stop_code": "PETO2",
        "stop_name": "Petone Station",
        "stop_desc": "",
        "stop_lat": -41.22199619,
        "stop_lon": 174.86945863,
        "zone_id": "4",
        "stop_url": "",
        "location_type": 0,
        "parent_station": "PETO",
        "stop_timezone": ""
    },
    {
        "stop_id": "WOBU2",
        "stop_code": "WOBU2",
        "stop_name": "Woburn Station",
        "stop_desc": "",
        "stop_lat": -41.22083263,
        "stop_lon": 174.91119314,
        "zone_id": "4",
        "stop_url": "",
        "location_type": 0,
        "parent_station": "WOBU",
        "stop_timezone": ""
    },
    {
        "stop_id": "WATE2",
        "stop_code": "WATE2",
        "stop_name": "Waterloo Station",
        "stop_desc": "",
        "stop_lat": -41.21389774,
        "stop_lon": 174.92109981,
        "zone_id": "4",
        "stop_url": "",
        "location_type": 0,
        "parent_station": "WATE",
        "stop_timezone": ""
    },
    {
        "stop_id": "TAIT2",
        "stop_code": "TAIT2",
        "stop_name": "Taita Station",
        "stop_desc": "",
        "stop_lat": -41.18031902,
        "stop_lon": 174.96066803,
        "zone_id": "5",
        "stop_url": "",
        "location_type": 0,
        "parent_station": "TAIT",
        "stop_timezone": ""
    },
    {
        "stop_id": "TREN2",
        "stop_code": "TREN2",
        "stop_name": "Trentham Station",
        "stop_desc": "",
        "stop_lat": -41.13783613,
        "stop_lon": 175.0383871,
        "zone_id": "7/6",
        "stop_url": "",
        "location_type": 0,
        "parent_station": "TREN",
        "stop_timezone": ""
    },
    {
        "stop_id": "WALL2",
        "stop_code": "WALL2",
        "stop_name": "Wallaceville Station",
        "stop_desc": "",
        "stop_lat": -41.130638,
        "stop_lon": 175.05837444,
        "zone_id": "7",
        "stop_url": "",
        "location_type": 0,
        "parent_station": "WALL",
        "stop_timezone": ""
    },
    {
        "stop_id": "TAIT1",
        "stop_code": "TAIT1",
        "stop_name": "Taita Station",
        "stop_desc": "",
        "stop_lat": -41.18038256,
        "stop_lon": 174.96084101,
        "zone_id": "5",
        "stop_url": "",
        "location_type": 0,
        "parent_station": "TAIT",
        "stop_timezone": ""
    },
    {
        "stop_id": "UPPE",
        "stop_code": "UPPE",
        "stop_name": "Upper Hutt Station",
        "stop_desc": "",
        "stop_lat": -41.12623233,
        "stop_lon": 175.07031754,
        "zone_id": "7",
        "stop_url": "",
        "location_type": 0,
        "parent_station": "",
        "stop_timezone": "Pacific/Auckland"
    },
    {
        "stop_id": "WING",
        "stop_code": "WING",
        "stop_name": "Wingate Station",
        "stop_desc": "",
        "stop_lat": -41.18878155,
        "stop_lon": 174.95469693,
        "zone_id": "5",
        "stop_url": "",
        "location_type": 0,
        "parent_station": "",
        "stop_timezone": "Pacific/Auckland"
    },
    {
        "stop_id": "WALL1",
        "stop_code": "WALL1",
        "stop_name": "Wallaceville Station",
        "stop_desc": "",
        "stop_lat": -41.13063693,
        "stop_lon": 175.0588165,
        "zone_id": "7",
        "stop_url": "",
        "location_type": 0,
        "parent_station": "WALL",
        "stop_timezone": ""
    },
    {
        "stop_id": "TREN1",
        "stop_code": "TREN1",
        "stop_name": "Trentham Station",
        "stop_desc": "",
        "stop_lat": -41.13791945,
        "stop_lon": 175.0384812,
        "zone_id": "6/7",
        "stop_url": "",
        "location_type": 0,
        "parent_station": "TREN",
        "stop_timezone": ""
    },
    {
        "stop_id": "NAEN",
        "stop_code": "NAEN",
        "stop_name": "Naenae Station",
        "stop_desc": "",
        "stop_lat": -41.19783157,
        "stop_lon": 174.94616226,
        "zone_id": "5",
        "stop_url": "",
        "location_type": 0,
        "parent_station": "",
        "stop_timezone": "Pacific/Auckland"
    },
    {
        "stop_id": "HERE",
        "stop_code": "HERE",
        "stop_name": "Heretaunga Station",
        "stop_desc": "",
        "stop_lat": -41.14233915,
        "stop_lon": 175.02591233,
        "zone_id": "6",
        "stop_url": "",
        "location_type": 0,
        "parent_station": "",
        "stop_timezone": "Pacific/Auckland"
    },
    {
        "stop_id": "EPUN",
        "stop_code": "EPUN",
        "stop_name": "Epuni Station",
        "stop_desc": "",
        "stop_lat": -41.20750643,
        "stop_lon": 174.93031151,
        "zone_id": "5",
        "stop_url": "",
        "location_type": 0,
        "parent_station": "",
        "stop_timezone": "Pacific/Auckland"
    },
    {
        "stop_id": "SILV",
        "stop_code": "SILV",
        "stop_name": "Silverstream Station",
        "stop_desc": "",
        "stop_lat": -41.14729787,
        "stop_lon": 175.01029236,
        "zone_id": "6",
        "stop_url": "",
        "location_type": 0,
        "parent_station": "",
        "stop_timezone": "Pacific/Auckland"
    },
    {
        "stop_id": "WATE1",
        "stop_code": "WATE1",
        "stop_name": "Waterloo Station",
        "stop_desc": "",
        "stop_lat": -41.21394593,
        "stop_lon": 174.92116387,
        "zone_id": "4",
        "stop_url": "",
        "location_type": 0,
        "parent_station": "WATE",
        "stop_timezone": ""
    },
    {
        "stop_id": "MANO",
        "stop_code": "MANO",
        "stop_name": "Manor Park Station",
        "stop_desc": "",
        "stop_lat": -41.156315,
        "stop_lon": 174.978929,
        "zone_id": "6",
        "stop_url": "",
        "location_type": 0,
        "parent_station": "",
        "stop_timezone": "Pacific/Auckland"
    },
    {
        "stop_id": "WOBU1",
        "stop_code": "WOBU1",
        "stop_name": "Woburn Station",
        "stop_desc": "",
        "stop_lat": -41.22092182,
        "stop_lon": 174.91133467,
        "zone_id": "4",
        "stop_url": "",
        "location_type": 0,
        "parent_station": "WOBU",
        "stop_timezone": ""
    },
    {
        "stop_id": "POMA",
        "stop_code": "POMA",
        "stop_name": "Pomare Station",
        "stop_desc": "",
        "stop_lat": -41.16945495,
        "stop_lon": 174.96972088,
        "zone_id": "5",
        "stop_url": "",
        "location_type": 0,
        "parent_station": "",
        "stop_timezone": "Pacific/Auckland"
    },
    {
        "stop_id": "AVA",
        "stop_code": "AVA",
        "stop_name": "Ava Station",
        "stop_desc": "",
        "stop_lat": -41.21955359,
        "stop_lon": 174.89200603,
        "zone_id": "4",
        "stop_url": "",
        "location_type": 0,
        "parent_station": "",
        "stop_timezone": "Pacific/Auckland"
    },
    {
        "stop_id": "PETO1",
        "stop_code": "PETO1",
        "stop_name": "Petone Station",
        "stop_desc": "",
        "stop_lat": -41.22202574,
        "stop_lon": 174.86951757,
        "zone_id": "4",
        "stop_url": "",
        "location_type": 0,
        "parent_station": "PETO",
        "stop_timezone": ""
    },
    {
        "stop_id": "WELL1",
        "stop_code": "WELL1",
        "stop_name": "Wellington Station",
        "stop_desc": "",
        "stop_lat": -41.27832,
        "stop_lon": 174.78063,
        "zone_id": "1",
        "stop_url": "",
        "location_type": 0,
        "parent_station": "WELL",
        "stop_timezone": ""
    },
    {
        "stop_id": "NGAU",
        "stop_code": "NGAU",
        "stop_name": "Ngauranga Station",
        "stop_desc": "",
        "stop_lat": -41.249038,
        "stop_lon": 174.813013,
        "zone_id": "3",
        "stop_url": "",
        "location_type": 0,
        "parent_station": "",
        "stop_timezone": "Pacific/Auckland"
    }
]