[
    {
        "stop_id": "PETO2",
        "stop_code": "PETO2",
        "stop_name": "Petone Station",
        "stop_desc": "",
        "stop_lat": -41.22199619,
        "stop_lon": 174.86945863,
        "zone_id": "4",
        "stop_url": "",
        "location_type": 0,
        "parent_station": "PETO",
        "stop_timezone": ""
    },
    {
        "stop_id": "WATE2",
        "stop_code": "WATE2",
        "stop_name": "Waterloo Station",
        "stop_desc": "",
        "stop_lat": -41.21389774,
        "stop_lon": 174.92109981,
        "zone_id": "4",
        "stop_url": "",
        "location_type": 0,
        "parent_station": "WATE",
        "stop_timezone": ""
    },
    {
        "stop_id": "MAST",
        "stop_code": "MAST",
        "stop_name": "Masterton Station",
        "stop_desc": "",
        "stop_lat": -40.94043328,
        "stop_lon": 175.65474837,
        "zone_id": "14",
        "stop_url": "",
        "location_type": 0,
        "parent_station": "",
        "stop_timezone": "Pacific/Auckland"
    },
    {
        "stop_id": "RENA",
        "stop_code": "RENA",
        "stop_name": "Renall Street Station",
        "stop_desc": "",
        "stop_lat": -40.94765033,
        "stop_lon": 175.6384081,
        "zone_id": "14",
        "stop_url": "",
        "location_type": 0,
        "parent_station": "",
        "stop_timezone": "Pacific/Auckland"
    },
    {
        "stop_id": "SOLW",
        "stop_code": "SOLW",
        "stop_name": "Solway Station",
        "stop_desc": "",
        "stop_lat": -40.95338889,
        "stop_lon": 175.62551783,
        "zone_id": "14",
        "stop_url": "",
        "location_type": 0,
        "parent_station": "",
        "stop_timezone": "Pacific/Auckland"
    },
    {
        "stop_id": "CART",
        "stop_code": "CART",
        "stop_name": "Carterton Station",
        "stop_desc": "",
        "stop_lat": -41.02168247,
        "stop_lon": 175.52331266,
        "zone_id": "13",
        "stop_url": "",
        "location_type": 0,
        "parent_station": "",
        "stop_timezone": "Pacific/Auckland"
    },
    {
        "stop_id": "MATA",
        "stop_code": "MATA",
        "stop_name": "Matarawa Station",
        "stop_desc": "",
        "stop_lat": -41.04880879,
        "stop_lon": 175.44873607,
        "zone_id": "13",
        "stop_url": "",
        "location_type": 0,
        "parent_station": "",
        "stop_timezone": "Pacific/Auckland"
    },
    {
        "stop_id": "WOOD",
        "stop_code": "WOOD",
        "stop_name": "Woodside Station",
        "stop_desc": "",
        "stop_lat": -41.06736154,
        "stop_lon": 175.40189781,
        "zone_id": "12",
        "stop_url": "",
        "location_type": 0,
        "parent_station": "",
        "stop_timezone": "Pacific/Auckland"
    },
    {
        "stop_id": "FEAT",
        "stop_code": "FEAT",
        "stop_name": "Featherston Station",
        "stop_desc": "",
        "stop_lat": -41.11345391,
        "stop_lon": 175.32976323,
        "zone_id": "11",
        "stop_url": "",
        "location_type": 0,
        "parent_station": "",
        "stop_timezone": "Pacific/Auckland"
    },
    {
        "stop_id": "MAYM",
        "stop_code": "MAYM",
        "stop_name": "Maymorn Station",
        "stop_desc": "",
        "stop_lat": -41.10808608,
        "stop_lon": 175.13409007,
        "zone_id": "8",
        "stop_url": "",
        "location_type": 0,
        "parent_station": "",
        "stop_timezone": "Pacific/Auckland"
    },
    {
        "stop_id": "UPPE",
        "stop_code": "UPPE",
        "stop_name": "Upper Hutt Station",
        "stop_desc": "",
        "stop_lat": -41.12623233,
        "stop_lon": 175.07031754,
        "zone_id": "7",
        "stop_url": "",
        "location_type": 0,
        "parent_station": "",
        "stop_timezone": "Pacific/Auckland"
    },
    {
        "stop_id": "WATE1",
        "stop_code": "WATE1",
        "stop_name": "Waterloo Station",
        "stop_desc": "",
        "stop_lat": -41.21394593,
        "stop_lon": 174.92116387,
        "zone_id": "4",
        "stop_url": "",
        "location_type": 0,
        "parent_station": "WATE",
        "stop_timezone": ""
    },
    {
        "stop_id": "PETO1",
        "stop_code": "PETO1",
        "stop_name": "Petone Station",
        "stop_desc": "",
        "stop_lat": -41.22202574,
        "stop_lon": 174.86951757,
        "zone_id": "4",
        "stop_url": "",
        "location_type": 0,
        "parent_station": "PETO",
        "stop_timezone": ""
    },
    {
        "stop_id": "WELL1",
        "stop_code": "WELL1",
        "stop_name": "Wellington Station",
        "stop_desc": "",
        "stop_lat": -41.27832,
        "stop_lon": 174.78063,
        "zone_id": "1",
        "stop_url": "",
        "location_type": 0,
        "parent_station": "WELL",
        "stop_timezone": ""
    }
]